[
  {
    "name": "The Green Chicpea",
    "street": "59 Halsey Street",
    "city": "Newark",
    "state": "NJ",
    "zip": "07102",
    "url": "greenchicpea.com",
    "pos": {"lat":40.740783, "lng":-74.171123 }
  },
  {
    "name": "Dario's",
    "street": "27 Academy Street",
    "city": "Newark",
    "state": "NJ",
    "zip": "07102",
    "url": "dariosrestaurant.netwaiter.com",
    "pos": {"lat":40.737627, "lng":-74.172616 }
  },
  {
    "name": "Blaze Pizza ",
    "street": "691 Broad Street",
    "city": "Newark",
    "state": "NJ",
    "zip": "07102",
    "url": "blazepizza.com",
    "pos": {"lat":40.738622, "lng":-74.170630 }
  },
  {
    "name": "Chipotle",
    "street": "222 Market Street",
    "city": "Newark",
    "state": "NJ",
    "zip": "07102",
    "url": "chipotle.com",
    "pos": {"lat":40.735038, "lng":-74.170331 }
  },
  {
    "name": "Tops Diner",
    "street": "500 Passaic Avenue",
    "city": "East Newark",
    "state": "NJ",
    "zip": "07029",
    "url": "thetopsdiner.com",
    "pos": {"lat":40.750691, "lng":-74.163961 }
  }
]
